City,Lat,Lng,Max Temp,Humidity,Cloudiness,Wind Speed,Country,Date
bredasdorp,-34.5322,20.0403,59.29,83,23,5.77,ZA,1636830098
saint-philippe,-21.3585,55.7679,76.55,82,100,12.26,RE,1636830098
ushuaia,-54.8,-68.3,59.61,36,100,8.59,AR,1636830098
tongliao,43.6125,122.2653,30.99,71,14,6.17,CN,1636830099
albany,42.6001,-73.9662,56.75,88,92,4.0,US,1636829831
ekibastuz,51.6667,75.3667,31.93,60,100,15.19,KZ,1636830099
kaffrine,14.1059,-15.5508,86.05,32,100,5.35,SN,1636830100
busselton,-33.65,115.3333,53.04,69,5,17.0,AU,1636830100
tateyama,34.9833,139.8667,61.11,62,100,10.92,JP,1636830100
new norfolk,-42.7826,147.0587,44.92,76,100,1.01,AU,1636830100
narsaq,60.9167,-46.05,17.82,75,1,1.52,GL,1636830101
kaitangata,-46.2817,169.8464,48.94,95,100,3.98,NZ,1636830101
tuktoyaktuk,69.4541,-133.0374,16.21,94,100,11.63,CA,1636830102
marawi,7.9986,124.2928,65.64,93,100,2.39,PH,1636830102
port blair,11.6667,92.75,79.43,79,95,3.67,IN,1636830103
rikitea,-23.1203,-134.9692,73.09,73,100,11.74,PF,1636830103
mar del plata,-38.0023,-57.5575,63.88,83,100,37.0,AR,1636830009
dikson,73.5069,80.5464,-5.94,94,17,7.34,RU,1636830103
karla,59.3723,24.9275,39.56,80,75,4.61,EE,1636830104
qaanaaq,77.484,-69.3632,-9.0,56,0,8.19,GL,1636830104
aripuana,-9.1667,-60.6333,83.03,82,97,3.27,BR,1636830067
lazaro cardenas,17.9583,-102.2,86.04,57,0,3.31,MX,1636830003
havre-saint-pierre,50.2334,-63.5986,37.76,100,90,3.44,CA,1636830105
safford,32.834,-109.7076,75.94,17,1,3.44,US,1636830105
mataura,-46.1927,168.8643,47.34,100,100,1.72,NZ,1636830106
chokurdakh,70.6333,147.9167,-1.43,88,100,9.57,RU,1636830106
arraial do cabo,-22.9661,-42.0278,68.72,61,39,13.71,BR,1636830107
corumba,-19.0092,-57.6533,90.09,48,100,5.55,BR,1636830107
castro,-24.7911,-50.0119,71.02,48,0,7.25,BR,1636830107
cape town,-33.9258,18.4232,66.09,70,0,1.01,ZA,1636829823
biltine,14.5333,20.9167,84.7,17,0,9.31,TD,1636830108
pacifica,37.6138,-122.4869,74.37,76,20,1.01,US,1636830040
atherton,53.5237,-2.4935,53.22,84,0,1.01,GB,1636830109
pangnirtung,66.1451,-65.7125,-1.37,86,86,4.83,CA,1636830109
betsiamites,48.9413,-68.646,37.49,90,99,1.54,CA,1636830109
pozo colorado,-23.4923,-58.7972,98.92,27,19,9.17,PY,1636830110
san patricio,28.017,-97.5169,75.29,23,0,8.93,US,1636830110
bilma,18.6853,12.9164,82.08,14,29,5.86,NE,1636830111
portland,45.5234,-122.6762,56.01,95,90,1.99,US,1636829298
puerto ayora,-0.7393,-90.3518,70.41,73,16,10.87,EC,1636830111
ust-omchug,61.15,149.6333,17.51,96,100,3.29,RU,1636830111
hobart,-42.8794,147.3294,44.26,86,100,3.0,AU,1636830003
yavatmal,20.4,78.1333,70.92,90,32,6.13,IN,1636830112
abu samrah,35.3029,37.1841,60.24,29,100,8.66,SY,1636830112
severo-kurilsk,50.6789,156.125,38.44,78,26,19.26,RU,1636830113
punta arenas,-53.15,-70.9167,60.12,43,100,16.42,CL,1636830113
port alfred,-33.5906,26.891,64.17,88,94,12.68,ZA,1636830113
grindavik,63.8424,-22.4338,48.67,100,90,33.38,IS,1636830113
fortuna,40.5982,-124.1573,67.93,71,1,0.0,US,1636830081
taoudenni,22.6783,-3.9836,80.51,14,5,5.41,ML,1636830114
hermanus,-34.4187,19.2345,63.9,84,28,4.79,ZA,1636830114
roald,62.5833,6.1333,44.33,81,0,9.22,NO,1636830114
pedernales,18.0384,-71.744,83.64,69,100,5.7,DO,1636830115
torbay,47.6666,-52.7314,42.28,88,90,18.41,CA,1636830072
hilo,19.7297,-155.09,84.27,76,90,4.61,US,1636830008
kutum,14.2,24.6667,74.35,19,0,7.2,SD,1636830115
cockburn town,21.4612,-71.1419,81.66,75,9,9.93,TC,1636830116
shieli,44.1667,66.75,35.01,69,52,9.1,KZ,1636830116
ribeira grande,38.5167,-28.7,63.0,72,75,8.05,PT,1636830116
saskylakh,71.9167,114.0833,-17.43,85,9,7.16,RU,1636830117
yumen,40.2833,97.2,29.17,40,16,19.57,CN,1636830117
morros,-9.4467,-46.3003,85.68,51,86,5.55,BR,1636830118
magadan,59.5667,150.8,33.01,90,100,12.03,RU,1636830118
mount gambier,-37.8333,140.7667,44.51,100,75,20.71,AU,1636830119
atar,20.5169,-13.0499,84.42,29,4,6.08,MR,1636830119
kachug,53.9606,105.8817,18.68,98,96,0.63,RU,1636830119
dunedin,-45.8742,170.5036,54.81,66,100,3.0,NZ,1636830120
champerico,14.3,-91.9167,91.29,68,4,6.55,GT,1636830120
araouane,18.9048,-3.5265,80.15,12,100,4.21,ML,1636830120
khatanga,71.9667,102.5,-12.14,90,100,6.85,RU,1636830121
sao joao da barra,-21.6403,-41.0511,69.26,68,99,13.91,BR,1636830121
kovdor,67.5662,30.4758,20.7,93,98,7.7,RU,1636830122
thompson,55.7435,-97.8558,24.94,75,100,5.91,CA,1636830072
chuy,-33.6971,-53.4616,70.02,55,2,17.47,UY,1636830122
weinan,34.5036,109.5089,47.5,41,0,3.13,CN,1636830122
kupang,-10.1667,123.5833,79.7,83,100,3.49,ID,1636830123
kampot,10.6167,104.1833,75.25,90,41,4.16,KH,1636830123
padang,-0.9492,100.3543,77.72,84,100,3.42,ID,1636830123
carnarvon,-24.8667,113.6333,68.2,74,0,10.69,AU,1636830124
takestan,36.0696,49.6959,45.79,56,0,5.64,IR,1636830124
olinda,-8.0089,-34.8553,83.93,65,40,10.36,BR,1636830125
ilulissat,69.2167,-51.1,-12.73,69,0,7.27,GL,1636829931
sirvintos,55.05,24.95,39.24,80,100,10.51,LT,1636830125
tilichiki,60.4667,166.1,31.37,98,100,7.02,RU,1636830125
ulaanbaatar,47.9077,106.8832,23.23,57,8,2.37,MN,1636830012
sorland,67.667,12.6934,42.89,63,98,19.89,NO,1636830126
arkhipo-osipovka,44.37,38.52,49.64,78,9,11.05,RU,1636830126
barrow,71.2906,-156.7887,15.82,73,90,12.66,US,1636830127
yulara,-25.2406,130.9889,59.49,37,0,10.04,AU,1636830127
salalah,17.0151,54.0924,76.44,59,6,1.72,OM,1636830127
luanda,-8.8368,13.2343,80.6,74,40,10.36,AO,1636829921
chekhov,55.1431,37.4711,38.08,73,100,6.24,RU,1636830128
bluff,-46.6,168.3333,48.96,91,100,10.54,NZ,1636830128
qianjiang,30.4151,112.8859,53.6,67,0,5.88,CN,1636830129
lasa,46.6166,10.7002,42.37,99,100,2.37,IT,1636830129
sao filipe,14.8961,-24.4956,74.91,75,45,9.46,CV,1636830129
te anau,-45.4167,167.7167,45.64,98,100,1.57,NZ,1636830130
mackay,-21.15,149.2,63.05,48,18,7.38,AU,1636830130
tuatapere,-46.1333,167.6833,47.55,97,100,1.41,NZ,1636830130
simav,39.0882,28.9777,47.55,37,13,1.57,TR,1636830131
zhigansk,66.7697,123.3711,-26.37,100,65,1.45,RU,1636830131
kenora,49.8167,-94.4337,28.38,73,100,4.0,CA,1636830046
kapaa,22.0752,-159.319,75.18,78,100,1.01,US,1636830132
vila velha,-20.3297,-40.2925,67.95,86,90,7.0,BR,1636830132
moree,-29.4667,149.85,52.83,64,0,5.01,AU,1636830132
kahului,20.8947,-156.47,77.97,76,100,0.94,US,1636830133
yellowknife,62.456,-114.3525,29.41,100,90,3.44,CA,1636830055
visby,57.6409,18.296,45.95,93,90,5.75,SE,1636830133
west wendover,40.7391,-114.0733,57.76,39,100,1.7,US,1636830133
nikolskoye,59.7035,30.7861,37.02,95,99,3.29,RU,1636830134
aswan,24.0934,32.907,77.05,55,0,10.33,EG,1636830134
poso,-1.3959,120.7524,77.59,89,100,4.03,ID,1636830134
saint-joseph,-21.3667,55.6167,75.56,80,100,8.14,RE,1636830135
hasaki,35.7333,140.8333,45.0,53,100,13.76,JP,1636830135
luderitz,-26.6481,15.1594,70.25,54,6,15.28,NA,1636830135
talnakh,69.4865,88.3972,10.11,90,100,14.85,RU,1636830136
camocim,-2.9022,-40.8411,85.08,67,87,16.53,BR,1636830077
tevaitoa,-16.7833,-151.5,78.8,71,77,13.4,PF,1636830136
zhanakorgan,43.9098,67.2495,36.37,57,57,9.06,KZ,1636830136
mujiayingzi,42.1167,118.7833,28.67,77,17,6.82,CN,1636830137
davenda,53.5556,119.317,16.5,78,8,3.31,RU,1636830137
teacapan,22.55,-105.75,82.78,64,0,7.31,MX,1636830138
alyangula,-13.8483,136.4192,82.18,47,99,13.85,AU,1636830138
haines junction,60.7522,-137.5108,19.45,90,90,0.22,CA,1636830138
jamestown,42.097,-79.2353,35.53,93,90,8.01,US,1636829606
talwandi bhai,30.85,74.9333,64.2,26,0,1.83,IN,1636830139
baghdad,33.3406,44.4009,64.9,34,41,7.58,IQ,1636830139
gizo,-8.103,156.8419,82.24,75,70,5.48,SB,1636830140
kikwit,-5.041,18.8162,70.52,96,100,2.17,CD,1636830140
cherskiy,68.75,161.3,14.23,90,100,5.48,RU,1636830141
hamilton,39.1834,-84.5333,41.88,72,90,3.0,US,1636830141
guaratinga,-16.5667,-39.5667,66.47,95,100,6.08,BR,1636830141
srednekolymsk,67.45,153.6833,7.54,96,100,8.21,RU,1636830142
pacific grove,36.6177,-121.9166,78.31,65,3,3.0,US,1636830004
cabo san lucas,22.8909,-109.9124,88.61,66,82,3.0,MX,1636830009
nizwa,22.9333,57.5333,72.66,22,0,2.95,OM,1636830142
college,64.8569,-147.8028,0.28,82,40,0.0,US,1636830142
patiya,22.2931,91.9762,70.75,85,100,4.94,BD,1636830143
manggar,-2.8833,108.2667,78.78,78,100,4.68,ID,1636830143
sur,22.5667,59.5289,75.9,47,0,1.52,OM,1636830143
honningsvag,70.9821,25.9704,34.83,65,100,19.1,NO,1636830144
erenhot,43.6475,111.9767,25.41,68,8,9.55,CN,1636830144
lethem,3.3803,-59.7968,92.46,41,96,8.41,GY,1636830145
tiksi,71.6872,128.8694,0.68,98,100,5.86,RU,1636830145
kruisfontein,-34.0033,24.7314,63.88,85,100,13.6,ZA,1636830145
ocampo,21.65,-101.5,61.25,45,3,18.79,MX,1636830146
esperance,-33.8667,121.9,50.56,77,20,8.9,AU,1636830146
mahebourg,-20.4081,57.7,77.29,78,20,11.5,MU,1636830146
saint george,37.1041,-113.5841,75.67,33,1,3.44,US,1636830147
bathsheba,13.2167,-59.5167,82.08,72,100,14.2,BB,1636830147
fort saint james,54.4333,-124.25,38.75,69,11,5.84,CA,1636830148
georgetown,5.4112,100.3354,76.95,96,40,2.3,MY,1636830026
san cristobal,7.7669,-72.225,85.14,41,59,3.74,VE,1636830148
nyagan,62.1406,65.3936,18.41,93,100,7.52,RU,1636830148
evensk,61.95,159.2333,32.09,91,100,16.89,RU,1636830149
egvekinot,66.3167,-179.1667,1.62,93,68,2.64,RU,1636830149
pevek,69.7008,170.3133,4.35,95,100,3.74,RU,1636830149
lompoc,34.6391,-120.4579,89.13,26,1,0.0,US,1636830150
duku,11.2361,4.9073,84.58,29,0,1.99,NG,1636830150
nuuk,64.1835,-51.7216,16.41,57,20,18.41,GL,1636830150
porbandar,21.6422,69.6093,78.06,36,43,9.73,IN,1636830151
bethel,41.3712,-73.414,61.48,64,75,4.0,US,1636830151
valdivia,-39.8142,-73.2459,58.75,53,32,8.84,CL,1636830151
aklavik,68.2191,-135.0107,17.6,86,90,11.5,CA,1636830152
palasa,18.7667,84.4167,74.43,95,43,7.0,IN,1636830152
kavaratti,10.5669,72.642,81.93,75,100,8.57,IN,1636830152
waingapu,-9.6567,120.2641,78.93,83,100,4.29,ID,1636830153
rumford,44.5537,-70.5509,56.79,50,14,5.68,US,1636830067
rincon,32.296,-81.2354,74.86,43,20,4.61,US,1636830094
porechye-rybnoye,57.098,39.3835,31.91,92,93,7.52,RU,1636830153
victoria,22.2855,114.1577,70.32,56,4,5.99,HK,1636829920
kvarkeno,52.0833,59.725,30.43,94,100,14.92,RU,1636830154
isabela,6.7085,121.9711,78.17,86,100,2.28,PH,1636830154
norman wells,65.282,-126.8329,11.23,88,100,10.65,CA,1636830154
coffs harbour,-30.3,153.1333,53.13,87,0,4.61,AU,1636830155
pisco,-13.7,-76.2167,68.02,79,56,9.15,PE,1636830155
lebu,-37.6167,-73.65,56.17,62,16,11.97,CL,1636830155
taltal,-25.4,-70.4833,66.67,66,25,7.85,CL,1636830022
asau,46.4333,26.4,42.28,80,91,2.57,RO,1636830156
sao felix do xingu,-6.6447,-51.995,80.17,91,98,2.24,BR,1636830040
hithadhoo,-0.6,73.0833,82.15,76,56,12.28,MV,1636830156
provideniya,64.3833,-173.3,23.2,99,96,2.64,RU,1636830157
beringovskiy,63.05,179.3167,22.06,91,100,4.59,RU,1636830157
kolyvan,55.3053,82.7391,29.05,91,100,8.79,RU,1636830157
kodiak,57.79,-152.4072,21.9,76,46,8.55,US,1636830008
manokwari,-0.8667,134.0833,78.33,79,66,3.09,ID,1636830158
katsuura,35.1333,140.3,61.2,66,100,10.16,JP,1636830158
eenhana,-17.4667,16.3333,78.64,35,50,2.93,NA,1636830158
conde,-7.2597,-34.9075,82.08,62,26,13.71,BR,1636830159
linjiang,41.8069,126.9078,31.3,98,72,1.21,CN,1636830159
bambous virieux,-20.3428,57.7575,77.25,78,20,11.5,MU,1636830159
itoman,26.1247,127.6694,68.4,83,75,16.11,JP,1636830160
hamirpur,25.95,80.15,67.59,44,5,2.86,IN,1636830160
yerbogachen,61.2767,108.0108,-12.59,100,100,2.91,RU,1636830160
atuona,-9.8,-139.0333,78.75,61,4,15.08,PF,1636830161
margate,51.3813,1.3862,53.96,81,100,5.01,GB,1636830161
sitka,57.0531,-135.33,40.66,80,100,7.2,US,1636830161
klaksvik,62.2266,-6.589,47.32,92,100,21.7,FO,1636830162
ancud,-41.8697,-73.8203,59.43,66,3,12.57,CL,1636830162
sandakan,5.8402,118.1179,75.63,92,100,3.85,MY,1636830162
wukari,7.85,9.7833,83.53,52,100,0.69,NG,1636830163
vostok,46.4856,135.8833,25.5,96,100,3.51,RU,1636830163
warrensburg,38.7628,-93.7361,45.86,51,1,5.99,US,1636830164
manjeshwar,12.7194,74.8861,77.95,91,100,8.84,IN,1636830164
butaritari,3.0707,172.7902,81.82,75,68,15.55,KI,1636830164
nhulunbuy,-12.2333,136.7667,77.61,73,100,8.05,AU,1636830165
alofi,-19.0595,-169.9187,78.04,73,11,6.35,NU,1636830165
vaini,-21.2,-175.2,77.16,83,40,8.05,TO,1636830165
faya,18.3851,42.4509,60.08,35,0,0.67,SA,1636830166
kloulklubed,7.0419,134.2556,77.5,90,100,8.16,PW,1636830166
richards bay,-28.783,32.0377,70.14,85,100,3.42,ZA,1636830166
vila franca do campo,37.7167,-25.4333,68.2,86,98,20.36,PT,1636830167
naze,28.3667,129.4833,58.75,89,100,13.0,JP,1636830167
coahuayana,18.7333,-103.6833,90.88,51,0,5.03,MX,1636830168
hofn,64.2539,-15.2082,46.15,95,100,23.26,IS,1636830168
newton,42.337,-71.2092,62.89,52,5,5.01,US,1636830087
hobyo,5.3505,48.5268,80.69,69,100,13.89,SO,1636830168
linguere,15.3953,-15.1193,86.22,26,94,9.33,SN,1636830169
upernavik,72.7868,-56.1549,5.16,93,100,4.85,GL,1636830169
belen,36.4891,36.2233,44.74,40,0,2.3,TR,1636830170
neuquen,-38.9516,-68.0591,71.49,23,40,16.11,AR,1636829962
dali,25.7,100.1833,49.32,94,52,0.85,CN,1636830170
tasiilaq,65.6145,-37.6368,30.36,80,100,17.65,GL,1636830170
ostrovnoy,68.0531,39.5131,21.29,84,100,23.38,RU,1636830171
tura,25.5198,90.2201,60.1,84,8,2.71,IN,1636830171
cardenas,23.0375,-81.2047,83.16,69,100,7.45,CU,1636830171
spornoye,50.8448,37.2913,33.82,89,25,4.74,RU,1636830172
apatou,5.155,-54.3472,84.31,72,50,4.07,GF,1636830172
tahta,26.7693,31.5021,73.45,39,0,4.45,EG,1636830173
bridlington,54.0831,-0.1919,51.98,88,99,14.74,GB,1636830173
assomada,15.1,-23.6833,72.95,69,65,7.27,CV,1636830174
menomonee falls,43.1789,-88.1173,39.94,67,90,3.0,US,1636830174
nassau,40.7507,-73.5829,64.08,65,100,5.01,US,1636829910
curup,-3.4667,102.5333,68.45,97,100,1.68,ID,1636830174
saint-francois,46.4154,3.9054,49.48,93,75,3.44,FR,1636830175
wiarton,44.7407,-81.1332,40.39,77,100,18.37,CA,1636830175
numaligarh,26.6333,93.75,63.01,88,2,0.96,IN,1636829946
saint-michel-des-saints,46.6834,-73.9159,38.93,96,100,6.31,CA,1636830175
bull savanna,17.8868,-77.5902,84.36,62,99,9.08,JM,1636830176
seoul,37.5683,126.9778,53.04,69,50,2.91,KR,1636830176
port-gentil,-0.7193,8.7815,79.56,85,86,10.94,GA,1636830176
baiyin,36.5583,104.2081,33.39,32,0,1.97,CN,1636830177
indianola,41.3581,-93.5574,37.89,77,40,9.19,US,1636830177
tessalit,20.1986,1.0114,76.55,12,100,8.3,ML,1636830177
sioux lookout,50.1001,-91.917,28.47,69,90,6.91,CA,1636829976
nicolas romero,19.6219,-99.3131,65.16,30,0,8.34,MX,1636830178
caravelas,-17.7125,-39.2481,70.75,79,100,12.06,BR,1636830178
rocha,-34.4833,-54.3333,72.45,52,0,18.1,UY,1636830086
faanui,-16.4833,-151.75,79.25,72,96,13.27,PF,1636830179
flin flon,54.7682,-101.865,28.94,83,100,7.09,CA,1636830072
fairbanks,64.8378,-147.7164,0.3,80,40,0.0,US,1636830003
mazsalaca,57.8633,25.0547,37.26,89,100,4.29,LV,1636830179
nieves,15.3274,120.9485,74.77,91,30,2.84,PH,1636830180
iqaluit,63.7506,-68.5145,-2.31,77,13,21.0,CA,1636830180
saldanha,-33.0117,17.9442,63.46,85,100,16.37,ZA,1636830079
timmins,48.4669,-81.3331,31.82,93,75,11.5,CA,1636830180
guerrero negro,27.9769,-114.0611,82.58,23,95,2.46,MX,1636830181
clyde river,70.4692,-68.5914,-4.74,87,46,5.3,CA,1636830181
opuwo,-18.0607,13.84,73.74,58,99,4.5,NA,1636830181
zeya,53.75,127.2667,14.45,62,45,5.12,RU,1636830182
makakilo city,21.3469,-158.0858,79.12,67,1,3.44,US,1636830182
paamiut,61.994,-49.6678,10.98,71,0,11.9,GL,1636830182
karaton,-6.3424,106.1045,77.16,90,100,4.47,ID,1636830183
lahaina,20.8783,-156.6825,77.95,64,100,0.96,US,1636829998
akureyri,65.6835,-18.0878,39.27,99,99,6.73,IS,1636830183
prieska,-29.6641,22.7474,80.74,14,8,8.23,ZA,1636830184
avarua,-21.2078,-159.775,69.85,100,75,3.44,CK,1636830184
leningradskiy,69.3833,178.4167,7.36,97,97,4.79,RU,1636830185
greeneville,36.1632,-82.831,50.92,62,75,5.75,US,1636830185
broome,42.2506,-75.833,42.01,78,90,5.01,US,1636830185
airai,-8.9266,125.4092,61.84,94,100,0.69,TL,1636830186
dicabisagan,17.0818,122.4157,76.44,91,10,3.47,PH,1636830186
ponta do sol,32.6667,-17.1,69.12,72,50,3.49,PT,1636830186
barhi,23.9,80.8,63.19,53,8,3.0,IN,1636830187
kimry,56.8667,37.35,35.55,94,100,4.7,RU,1636830187
causapscal,48.3542,-67.227,40.06,92,91,1.34,CA,1636830187
elliot,-31.3333,27.85,56.34,93,100,4.05,ZA,1636830188
umm lajj,25.0213,37.2685,79.29,54,100,6.4,SA,1636830188
goderich,43.7501,-81.7165,43.92,75,100,24.02,CA,1636830188
xai-xai,-25.0519,33.6442,74.88,81,100,9.13,MZ,1636830189
saint-augustin,51.226,-58.6502,34.0,98,100,14.58,CA,1636830189
fuerte olimpo,-21.0415,-57.8738,99.77,26,11,5.73,PY,1636830189
guanica,17.9716,-66.908,87.98,69,17,11.01,PR,1636830190
bengkulu,-3.8004,102.2655,75.88,90,100,4.43,ID,1636830190
kaohsiung,22.6163,120.3133,65.03,88,12,5.99,TW,1636830111
east london,-33.0153,27.9116,66.56,76,99,12.39,ZA,1636830033
corinto,37.9407,22.9573,58.89,78,100,3.87,GR,1636830191
harper,4.375,-7.7169,78.96,81,10,4.88,LR,1636830191
port elizabeth,-33.918,25.5701,66.09,85,98,16.44,ZA,1636830191
zabol,32.25,67.25,42.4,22,0,9.31,AF,1636830191
howard springs,-12.497,131.047,75.87,96,100,6.17,AU,1636830192
ler,8.3018,30.1418,79.25,53,9,2.66,SS,1636830018
beloha,-25.1667,45.05,71.91,97,27,2.62,MG,1636830192
sirjan,29.452,55.6814,55.26,35,0,4.34,IR,1636830193
rorvik,64.8621,11.2373,40.93,65,33,8.48,NO,1636830189
waipawa,-41.4122,175.5153,59.63,76,2,18.9,NZ,1636830193
shar,49.5886,81.0453,29.26,74,100,11.27,KZ,1636830193
shingu,33.7333,135.9833,51.76,77,98,5.08,JP,1636830194
manali,13.1667,80.2667,81.07,91,49,4.45,IN,1636830194
port lincoln,-34.7333,135.8667,54.3,68,59,21.03,AU,1636830194
skagen,57.7209,10.5839,47.08,82,100,17.83,DK,1636830195
bousso,10.4795,16.7117,85.55,19,0,4.68,TD,1636830195
meulaboh,4.1363,96.1285,76.57,88,100,3.76,ID,1636830195
neiafu,-18.65,-173.9833,77.68,94,20,0.0,TO,1636830196
gari,59.4307,62.3497,15.55,98,87,4.12,RU,1636830196
liuzhou,24.3126,109.3892,60.13,64,100,4.25,CN,1636830013
astoria,46.1879,-123.8313,53.85,93,1,5.99,US,1636830197
balakhonovskoye,44.7767,41.7842,39.27,88,1,2.53,RU,1636830197
kawambwa,-9.7915,29.0791,72.32,56,90,3.83,ZM,1636830197
yar-sale,66.8333,70.8333,2.91,80,5,9.01,RU,1636830198
laguna,38.421,-121.4238,78.64,97,90,0.0,US,1636830198
vilhena,-12.7406,-60.1458,79.9,74,50,6.46,BR,1636830198
carutapera,-1.195,-46.02,83.28,74,100,8.08,BR,1636830199
benguela,-12.5763,13.4055,76.93,78,81,1.9,AO,1636830033
madison,34.7334,-86.5667,50.92,49,1,1.99,US,1636830046
agucadoura,41.4318,-8.7804,62.31,75,48,5.59,PT,1636830199
mae hong son,19.3003,97.9685,71.56,90,100,2.08,TH,1636830199
oktyabrskiy,54.4815,53.471,27.97,92,99,9.28,RU,1636830200
maddur,12.6,77.0667,73.04,98,100,3.36,IN,1636830200
vardo,70.3705,31.1107,32.59,91,100,20.24,NO,1636830189
puerto suarez,-18.95,-57.8,93.76,49,40,9.22,BO,1636830201
kununurra,-15.7667,128.7333,80.58,41,40,5.75,AU,1636830201
san quintin,30.4833,-115.95,78.85,27,15,6.33,MX,1636830201
provins,48.5833,3.1667,51.04,91,100,5.17,FR,1636830202
gat,31.61,34.7642,76.91,25,99,10.47,IL,1636830183
bonthe,7.5264,-12.505,80.24,82,100,6.04,SL,1636830202
bundaberg,-24.85,152.35,58.21,90,0,4.61,AU,1636830202
ahipara,-35.1667,173.1667,66.85,99,100,14.79,NZ,1636830203
lakhdenpokhya,61.5198,30.1992,33.82,70,100,4.79,RU,1636830203
mvuma,-19.2792,30.5283,74.57,50,96,5.46,ZW,1636830203
rasulnagar,32.3285,73.7814,62.83,24,0,3.91,PK,1636830204
japura,-0.3167,102.35,74.75,97,100,2.91,ID,1636830079
ocos,14.5094,-92.1933,89.78,67,4,6.6,GT,1636830204
nemuro,43.3236,145.575,45.25,72,0,7.83,JP,1636830204
changde,29.0464,111.6783,52.86,71,7,5.61,CN,1636830205
estelle,29.8458,-90.1067,62.01,47,1,13.8,US,1636830205
nordhausen,51.5167,10.8,43.56,99,100,2.62,DE,1636830205
suntar,62.1444,117.6319,-10.32,99,28,2.91,RU,1636830206
hualmay,-11.0964,-77.6139,69.12,70,43,10.65,PE,1636830206
jiayuguan,39.8167,98.3,29.32,34,8,1.68,CN,1636830206
xiaoyi,34.6178,109.703,47.98,40,0,2.98,CN,1636830207
sola,-13.8833,167.55,82.08,75,100,16.24,VU,1636830078
mayo,38.8876,-76.5119,54.55,65,40,8.01,US,1636830207
sucre,-19.0333,-65.2627,71.47,37,10,13.4,BO,1636830207
villazon,-22.0866,-65.5942,75.06,10,73,12.39,BO,1636830208
lagos,6.5833,3.75,78.12,88,10,4.79,NG,1636830051
chara,56.9064,118.2631,3.36,83,44,1.86,RU,1636830208
kigali,-1.95,30.0588,71.08,64,40,4.61,RW,1636830018
dingle,10.9995,122.6711,76.6,92,100,6.17,PH,1636830209
sao paulo de olivenca,-3.3783,-68.8725,90.34,51,72,0.85,BR,1636830209
bubaque,11.2833,-15.8333,84.47,66,100,5.44,GW,1636830210
bukachacha,52.9833,116.9167,17.65,82,70,2.77,RU,1636830210
hede,33.7681,120.2517,47.32,72,0,7.05,CN,1636830210
betafo,-19.8333,46.85,64.54,83,100,2.86,MG,1636830211
salina cruz,16.1667,-95.2,87.4,43,0,29.75,MX,1636830211
mao,39.8885,4.2658,61.36,94,40,19.57,ES,1636830211
methoni,36.8197,21.7049,63.21,71,100,8.25,GR,1636830212
codrington,-38.2667,141.9667,43.21,97,77,13.96,AU,1636830212
ekhabi,53.5102,142.9671,26.37,79,99,13.33,RU,1636830212
olafsvik,64.8945,-23.7142,46.51,92,100,27.16,IS,1636830213
ayan,56.45,138.1667,22.26,67,100,16.02,RU,1636830213
hoganas,56.1997,12.558,46.35,88,100,5.99,SE,1636830213
angoche,-16.2325,39.9086,79.93,81,0,14.52,MZ,1636830133
pemangkat,1.1667,108.9667,77.41,86,100,4.25,ID,1636830214
mount isa,-20.7333,139.5,53.37,87,13,6.91,AU,1636830214
wanning,18.8003,110.3967,67.62,78,95,9.31,CN,1636830214
malkangiri,18.35,81.9,72.55,95,86,1.9,IN,1636830215
najran,17.4924,44.1277,60.33,22,0,2.1,SA,1636830215
sinnamary,5.3833,-52.95,82.98,71,74,8.99,GF,1636830073
general higinio morinigo,-25.95,-55.9167,86.97,35,14,7.92,PY,1636830216
vallenar,-28.5708,-70.7581,85.3,19,0,9.51,CL,1636830216
port hedland,-20.3167,118.5667,66.25,72,5,5.75,AU,1636830216
gejiu,23.306,103.1635,45.5,96,95,3.13,CN,1636830216
lebedinyy,58.5167,125.5167,-6.41,99,96,4.34,RU,1636830217
vila,42.0304,-8.1588,51.33,71,31,3.87,PT,1636830217
lagoa,39.05,-27.9833,63.28,68,100,18.3,PT,1636830218
miramar,25.9873,-80.2323,88.02,64,1,5.75,US,1636830218
praia da vitoria,38.7333,-27.0667,59.76,91,100,16.26,PT,1636830218
mumford,5.2618,-0.759,79.61,83,6,8.43,GH,1636830218
ornskoldsvik,63.2909,18.7153,26.42,100,90,3.44,SE,1636830219
lorengau,-2.0226,147.2712,80.8,80,87,5.41,PG,1636830219
kirakira,-10.4544,161.9205,79.72,83,9,5.41,SB,1636830219
poronaysk,49.2167,143.1167,32.36,65,7,8.7,RU,1636830220
norfolk,42.1668,-71.2495,62.69,47,4,3.0,US,1636830097
vao,-22.6667,167.4833,76.03,83,5,9.46,NC,1636830220
souillac,-20.5167,57.5167,77.38,78,20,11.5,MU,1636830063
nantucket,41.2835,-70.0995,59.97,74,1,12.66,US,1636830207
khani,41.9563,42.9566,31.57,66,0,3.69,GE,1636830221
wanlaweyn,2.6185,44.8938,78.8,74,97,10.98,SO,1636830221
amarillo,35.222,-101.8313,70.21,23,1,15.01,US,1636830011
owensboro,37.7742,-87.1133,43.18,65,90,8.05,US,1636830221
sao jose de ribamar,-2.5619,-44.0542,88.18,70,6,12.57,BR,1636830222
erzin,36.9559,36.2,54.12,31,100,7.92,TR,1636830222
tambopata,-12.7333,-69.1833,89.56,50,100,2.44,PE,1636830222
scottsbluff,41.8666,-103.6672,61.81,43,99,13.0,US,1636829986
yeppoon,-23.1333,150.7333,64.18,53,0,6.04,AU,1636830223
namibe,-15.1961,12.1522,70.39,80,41,12.55,AO,1636830223
barra patuca,15.8,-84.2833,80.55,80,30,5.91,HN,1636830224
benxi,41.2886,123.765,19.72,93,20,2.53,CN,1636830025
voi,-3.3945,38.563,74.66,74,4,8.88,KE,1636830224
kavieng,-2.5744,150.7967,81.12,73,100,11.07,PG,1636830224
nyrob,60.733,56.7202,20.93,86,100,10.45,RU,1636830225
kollam,8.8833,76.6,80.47,87,100,11.16,IN,1636830018
longyearbyen,78.2186,15.6401,10.24,61,20,12.66,SJ,1636830225
lensk,60.7253,114.9278,4.37,96,97,2.08,RU,1636830226
oksfjord,70.2396,22.3479,34.72,93,100,5.57,NO,1636830226
kristianstad,56.0313,14.1524,44.98,100,90,1.99,SE,1636830226
novobirilyussy,56.9514,90.6661,26.37,85,100,9.46,RU,1636830226
chilca,-12.5211,-76.7372,68.16,78,77,7.25,PE,1636830227
camana,-16.6228,-72.7111,68.59,72,59,10.94,PE,1636830227
chimbote,-9.0853,-78.5783,68.43,71,99,10.22,PE,1636830227
lata,40.1629,-8.3327,57.81,69,97,3.0,PT,1636830228
darab,28.7519,54.5444,62.4,35,0,3.27,IR,1636830228
adrar,20.5022,-10.0711,81.32,30,78,6.98,MR,1636830228
machico,32.7,-16.7667,69.12,79,40,10.36,PT,1636830229
manaus,-3.1019,-60.025,82.89,74,75,6.91,BR,1636830013
la palma,33.8464,-118.0467,93.49,21,1,1.01,US,1636830201
durres,41.3231,19.4414,51.98,74,65,4.59,AL,1636830229
qui nhon,13.7667,109.2333,76.46,94,100,13.49,VN,1636830108
coquimbo,-29.9533,-71.3436,65.23,59,0,15.37,CL,1636830020
hambantota,6.1241,81.1185,79.14,89,0,5.75,LK,1636830230
kamina,-8.7386,24.9906,66.67,87,99,2.08,CD,1636830230
salinopolis,-0.6136,-47.3561,82.98,74,83,9.33,BR,1636830230
valdosta,30.8327,-83.2785,73.69,49,0,1.01,US,1636830023
berdigestyakh,62.0989,126.6992,-11.65,97,68,4.76,RU,1636830231
otradnoye,59.7775,30.8181,37.18,95,100,3.33,RU,1636830231
nichinan,31.6,131.3667,56.48,77,100,3.98,JP,1636830231
masingbi,8.7833,-11.95,76.14,87,75,1.43,SL,1636830232
necochea,-38.5473,-58.7368,76.03,39,100,18.86,AR,1636830232
touros,-5.1989,-35.4608,86.9,70,13,16.2,BR,1636830232
cidreira,-30.1811,-50.2056,69.44,64,0,22.73,BR,1636830233
biak,-0.9131,122.8766,76.95,84,100,4.54,ID,1636830233
svetlogorsk,52.6333,29.7333,34.21,90,38,6.64,BY,1636830233
nyurba,63.2842,118.3319,-11.7,97,72,3.8,RU,1636830234
kasongo-lunda,-6.4667,16.8167,71.35,93,100,2.44,CD,1636830234
nelidovo,56.2211,32.7774,35.1,76,89,1.54,RU,1636830235
pionerskiy,54.9508,20.2275,40.84,87,100,14.85,RU,1636830235
teguldet,57.3064,88.1667,25.97,90,100,9.4,RU,1636830235
praya,14.9215,-23.5087,77.54,65,20,14.97,CV,1636830236
nouadhibou,20.931,-17.0347,67.86,77,0,11.86,MR,1636830236
tijara,27.9333,76.85,66.94,25,0,2.95,IN,1636830236
kilemary,56.7783,46.8659,29.93,86,100,7.92,RU,1636830237
panaba,21.2833,-88.2667,82.96,61,57,14.94,MX,1636830237
calama,-22.4667,-68.9333,75.69,6,35,19.57,CL,1636830100
oriximina,-1.7656,-55.8661,93.18,42,49,4.41,BR,1636830237
sheridan,44.8333,-106.9173,61.18,24,40,10.0,US,1636830238
pestyaki,56.7103,42.6717,31.75,98,100,5.44,RU,1636830238
birnin kebbi,12.4539,4.1975,85.24,28,85,2.71,NG,1636830238
luwuk,-0.9516,122.7875,78.15,85,100,4.14,ID,1636830239
belyy yar,53.6039,91.3903,35.49,76,0,8.95,RU,1636830239
samarai,-10.6167,150.6667,80.83,83,86,4.9,PG,1636830239
tual,-5.6667,132.75,83.89,72,100,6.44,ID,1636830240
kudahuvadhoo,2.6708,72.8944,82.09,78,21,18.99,MV,1636830240
fort nelson,58.8053,-122.7002,34.9,71,12,7.61,CA,1636830072
leshukonskoye,64.8989,45.7622,18.68,95,6,3.8,RU,1636830240
boras,57.721,12.9401,45.82,92,100,6.35,SE,1636830241
eureka,40.8021,-124.1637,67.19,80,27,3.0,US,1636830241
geraldton,-28.7667,114.6,55.81,94,0,6.91,AU,1636830242
camacha,33.0833,-16.3333,65.62,68,20,8.05,PT,1636830242
conchal,-22.3303,-47.1725,74.12,34,84,4.45,BR,1636830243
takoradi,4.8845,-1.7554,79.5,84,8,7.54,GH,1636830243
vestmannaeyjar,63.4427,-20.2734,49.39,96,100,35.84,IS,1636830243
isangel,-19.55,169.2667,77.23,83,9,5.53,VU,1636830244
sar-e pul,35.8333,66.1667,38.62,72,100,0.92,AF,1636830244
presidencia roque saenz pena,-26.7852,-60.4388,101.14,22,100,13.8,AR,1636830244
axim,4.8699,-2.2405,78.84,84,3,5.64,GH,1636830244
monte san giovanni campano,41.6406,13.5137,56.59,90,74,1.74,IT,1636830245
gravdal,68.1214,13.5031,40.66,65,66,14.65,NO,1636830245
arlit,18.7369,7.3853,86.83,12,100,8.16,NE,1636830245
constitucion,-35.3333,-72.4167,59.59,61,1,19.1,CL,1636830088
igarka,67.4667,86.5833,9.82,94,100,13.04,RU,1636830246
san rafael,-34.6177,-68.3301,75.04,27,4,16.89,AR,1636830038
gaozhou,21.9392,110.8461,62.46,63,62,2.68,CN,1636830247
cayenne,4.9333,-52.3333,84.24,84,75,3.0,GF,1636830247
aban,56.67,96.06,29.52,89,100,9.06,RU,1636830247
ust-kuyga,70.0167,135.6,-3.28,99,100,3.98,RU,1636830248
marienburg,54.0359,19.0266,45.9,74,100,6.8,PL,1636830248
tambura,5.6,27.4667,73.31,78,8,2.28,SS,1636830021
husavik,66.0449,-17.3389,42.01,91,100,31.9,IS,1636830248
puri,19.8,85.85,75.72,94,96,8.1,IN,1636830232
vanavara,60.34,102.2797,10.42,95,100,3.44,RU,1636830249
bosorod,45.6833,23.0833,45.19,59,97,2.95,RO,1636830249
smolenka,52.1352,113.4974,24.87,58,10,8.95,RU,1636830249
sesheke,-17.4759,24.2968,83.44,34,96,2.37,ZM,1636830250
villarrica,-25.75,-56.4333,89.55,34,96,9.8,PY,1636830250
clarksville,36.5298,-87.3595,48.69,53,75,1.99,US,1636830140
baglan,36.1307,68.7083,47.35,74,0,4.45,AF,1636830250
bilecik,40.0,30.1667,33.42,42,34,6.85,TR,1636830119
merauke,-8.4667,140.3333,79.99,80,95,1.23,ID,1636830251
selma,36.5708,-119.6121,87.84,50,0,3.04,US,1636830251
high level,58.5169,-117.136,27.79,86,93,3.94,CA,1636830252
yangjiang,21.85,111.9667,62.46,61,58,6.44,CN,1636830252
ewa beach,21.3156,-158.0072,79.02,74,100,5.03,US,1636830057
altamont,42.2068,-121.7372,53.78,82,1,1.01,US,1636830253
tortoli,39.9256,9.6572,58.98,75,34,3.33,IT,1636830253
anadyr,64.75,177.4833,21.0,92,100,1.99,RU,1636830253
aldan,58.6031,125.3894,-5.78,99,92,4.18,RU,1636830254
valparaiso,-33.0393,-71.6273,74.84,44,0,20.71,CL,1636830254
buchanan,5.8808,-10.0467,78.76,78,97,5.23,LR,1636830254
jalu,29.0331,21.5482,68.16,51,98,7.63,LY,1636830255
basco,20.4487,121.9702,78.4,82,94,18.59,PH,1636830255
rio grande,-32.035,-52.0986,75.31,62,68,18.84,BR,1636830256
penzance,50.1186,-5.5371,52.81,84,3,7.85,GB,1636830256
bandarbeyla,9.4942,50.8122,78.75,72,99,16.24,SO,1636830256
komsomolskiy,40.4272,71.7189,40.42,45,91,1.32,UZ,1636830256
markova,48.6758,24.4138,40.59,57,91,2.8,UA,1636830257
ulladulla,-35.35,150.4667,53.1,65,97,12.66,AU,1636830257
udachnyy,66.4167,112.4,-24.54,84,2,4.34,RU,1636830258
plettenberg bay,-34.0527,23.3716,62.47,85,23,8.75,ZA,1636830258
puerto baquerizo moreno,-0.9,-89.6,67.86,79,38,11.27,EC,1636830012
sambava,-14.2667,50.1667,75.58,84,56,4.45,MG,1636830258
kieta,-6.2167,155.6333,79.16,79,38,1.43,PG,1636830259
corrales,35.2378,-106.6067,70.34,29,1,3.0,US,1636830259
boende,-0.2167,20.8667,70.09,99,100,2.64,CD,1636830259
gohpur,26.8833,93.6333,63.39,79,7,1.21,IN,1636830260
kadyy,57.787,43.1903,30.78,89,100,7.11,RU,1636830260
merrill,45.1805,-89.6835,35.37,68,90,6.91,US,1636830260
youghal,51.95,-7.8506,54.61,100,7,4.21,IE,1636830261
gidole,5.65,37.3667,61.27,61,92,3.47,ET,1636830261
nakhon si thammarat,8.25,100.0,80.06,93,100,3.15,TH,1636830261
altus,34.6381,-99.334,67.51,22,1,13.8,US,1636830262
hemet,33.7475,-116.972,87.94,17,0,1.01,US,1636830138
sisimiut,66.9395,-53.6735,7.54,91,34,9.46,GL,1636830262
tocopilla,-22.092,-70.1979,67.55,69,98,11.03,CL,1636830262
rizhao,35.4275,119.4553,47.39,56,0,4.81,CN,1636830025
portobelo,9.55,-79.65,85.96,73,72,7.87,PA,1636830263
skjervoy,70.0311,20.9714,41.05,67,16,15.95,NO,1636830263
lanxi,29.2195,119.477,49.37,90,1,0.49,CN,1636830264
grahamstown,-33.3042,26.5328,55.98,93,29,7.83,ZA,1636830010
mokrous,51.2333,47.5167,35.13,66,100,15.1,RU,1636830264
namie,37.4833,141.0,39.78,75,100,4.05,JP,1636830264
qasigiannguit,68.8193,-51.1922,-11.88,85,8,6.53,GL,1636830265
morondava,-20.2833,44.2833,78.44,82,6,4.03,MG,1636830265
baracoa,20.3467,-74.4958,86.0,60,49,4.5,CU,1636830265
suhaia,43.7333,25.25,46.42,69,93,3.6,RO,1636830265
ust-barguzin,53.45,108.9833,23.92,78,97,1.03,RU,1636830266
ducheng,23.2373,111.5317,58.8,71,16,2.17,CN,1636830266
sinjar,36.3209,41.8754,57.36,37,6,3.42,IQ,1636830266
hirado,33.3597,129.5531,54.36,57,100,12.73,JP,1636830267
lavrentiya,65.5833,-171.0,14.16,97,80,4.59,RU,1636830267
katobu,-4.9408,122.5276,75.36,92,100,3.04,ID,1636830267
gaomi,36.3833,119.7528,44.1,66,0,5.26,CN,1636830268
pangai,-19.8,-174.35,77.49,81,71,12.64,TO,1636830268
kysyl-syr,63.8986,122.7617,-17.37,99,41,4.5,RU,1636830268
pinsk,52.1229,26.0951,39.49,76,100,9.64,BY,1636830269
laurel,39.0993,-76.8483,53.51,66,75,7.0,US,1636829827
